{
"type": "FeatureCollection",
"name": "western_wa_golf",
"crs": { "type": "name", "properties": { "name": "urn:ogc:def:crs:OGC:1.3:CRS84" } },
"features": [
{ "type": "Feature", "properties": { "Name": "Lakeland Village Golf Course", "Type": "Public", "Holes": " 45 Holes", "Address": " 200 E Old Ranch Rd", "City": " Allyn", "State": "WA", "Zip Code": "98524", "Phone Number": " 360 275-6100", "Weekday_Early_Bird": 35.0, "Weekday_Prime_Time": 35.0, "Weekday_Afternoon": 25.0, "Weekday_Twilight": 20.0, "Weekend_Early_Bird": 45.0, "Weekend_Prime_Time": 45.0, "Weekend_Afternoon": 35.0, "Weekend_Twilight": 20.0 }, "geometry": { "type": "Point", "coordinates": [ -122.843242, 47.387272 ] } },
{ "type": "Feature", "properties": { "Name": "Swinomish Golf Links", "Type": "Public", "Holes": " 18 Holes", "Address": " 12518 Christianson Rd", "City": " Anacortes", "State": "WA", "Zip Code": "98221-8682", "Phone Number": " 360 293-3444", "Weekday_Early_Bird": 27.0, "Weekday_Prime_Time": 27.0, "Weekday_Afternoon": 27.0, "Weekday_Twilight": 22.0, "Weekend_Early_Bird": 32.0, "Weekend_Prime_Time": 32.0, "Weekend_Afternoon": 32.0, "Weekend_Twilight": 26.0 }, "geometry": { "type": "Point", "coordinates": [ -122.571099, 48.462082 ] } },
{ "type": "Feature", "properties": { "Name": "Gleneagle Golf Course", "Type": "Public", "Holes": " 18 Holes", "Address": " 7619 E Country Club Dr", "City": " Arlington", "State": "WA", "Zip Code": "98223", "Phone Number": " 360 435-6713", "Weekday_Early_Bird": 30.0, "Weekday_Prime_Time": 30.0, "Weekday_Afternoon": 30.0, "Weekday_Twilight": 30.0, "Weekend_Early_Bird": 37.0, "Weekend_Prime_Time": 37.0, "Weekend_Afternoon": 37.0, "Weekend_Twilight": 37.0 }, "geometry": { "type": "Point", "coordinates": [ -122.127531, 48.156713 ] } },
{ "type": "Feature", "properties": { "Name": "Auburn Golf Course", "Type": "Municipal", "Holes": " 18 Holes", "Address": " 29630 Green River Rd SE", "City": " Auburn", "State": "WA", "Zip Code": "98092-2501", "Phone Number": " 253 833-2350", "Weekday_Early_Bird": 34.0, "Weekday_Prime_Time": 34.0, "Weekday_Afternoon": 23.0, "Weekday_Twilight": 23.0, "Weekend_Early_Bird": 39.0, "Weekend_Prime_Time": 39.0, "Weekend_Afternoon": 26.0, "Weekend_Twilight": 26.0 }, "geometry": { "type": "Point", "coordinates": [ -122.208351, 47.33702 ] } },
{ "type": "Feature", "properties": { "Name": "Washington National Golf Club", "Type": "Public", "Holes": " 18 Holes", "Address": " 14330 SE Husky Way", "City": " Auburn", "State": "WA", "Zip Code": "98092-9259", "Phone Number": " 253 333-5000", "Weekday_Early_Bird": 75.0, "Weekday_Prime_Time": 75.0, "Weekday_Afternoon": 52.0, "Weekday_Twilight": 52.0, "Weekend_Early_Bird": 89.0, "Weekend_Prime_Time": 89.0, "Weekend_Afternoon": 68.0, "Weekend_Twilight": 68.0 }, "geometry": { "type": "Point", "coordinates": [ -122.149132, 47.307278 ] } },
{ "type": "Feature", "properties": { "Name": "Bellevue Municipal, Golf Course", "Type": "Municipal", "Holes": " 18 Holes", "Address": " 5500 140th Ave NE", "City": " Bellevue", "State": "WA", "Zip Code": "98005-1054", "Phone Number": " 425 452-7250", "Weekday_Early_Bird": 32.0, "Weekday_Prime_Time": 32.0, "Weekday_Afternoon": 32.0, "Weekday_Twilight": 25.0, "Weekend_Early_Bird": 26.0, "Weekend_Prime_Time": 37.0, "Weekend_Afternoon": 37.0, "Weekend_Twilight": 25.0 }, "geometry": { "type": "Point", "coordinates": [ -122.153231, 47.656527 ] } },
{ "type": "Feature", "properties": { "Name": "Lake Padden Golf Course", "Type": "Municipal", "Holes": " 18 Holes", "Address": " 4882 Samish Way", "City": " Bellingham", "State": "WA", "Zip Code": "98229-3444", "Phone Number": " 360 738-7400", "Weekday_Early_Bird": 31.0, "Weekday_Prime_Time": 31.0, "Weekday_Afternoon": 31.0, "Weekday_Twilight": 31.0, "Weekend_Early_Bird": 36.0, "Weekend_Prime_Time": 36.0, "Weekend_Afternoon": 36.0, "Weekend_Twilight": 36.0 }, "geometry": { "type": "Point", "coordinates": [ -122.447223, 48.706338 ] } },
{ "type": "Feature", "properties": { "Name": "North Bellingham Golf Course", "Type": "Public", "Holes": " 18 Holes", "Address": " 205 W Smith Rd", "City": " Bellingham", "State": "WA", "Zip Code": "98226-9615", "Phone Number": " 888 322-6242", "Weekday_Early_Bird": 40.0, "Weekday_Prime_Time": 40.0, "Weekday_Afternoon": 40.0, "Weekday_Twilight": 40.0, "Weekend_Early_Bird": 50.0, "Weekend_Prime_Time": 50.0, "Weekend_Afternoon": 50.0, "Weekend_Twilight": 50.0 }, "geometry": { "type": "Point", "coordinates": [ -122.490929, 48.83329 ] } },
{ "type": "Feature", "properties": { "Name": "Shuksan Golf Club", "Type": "Public", "Holes": " 18 Holes", "Address": " 1500 E Axton Rd", "City": " Bellingham", "State": "WA", "Zip Code": "98226-9572", "Phone Number": " 800 801-8897", "Weekday_Early_Bird": 32.0, "Weekday_Prime_Time": 32.0, "Weekday_Afternoon": 32.0, "Weekday_Twilight": 32.0, "Weekend_Early_Bird": 32.0, "Weekend_Prime_Time": 32.0, "Weekend_Afternoon": 32.0, "Weekend_Twilight": 32.0 }, "geometry": { "type": "Point", "coordinates": [ -122.411058, 48.84801 ] } },
{ "type": "Feature", "properties": { "Name": "Sudden Valley Golf & Country Club", "Type": "Public", "Holes": " 18 Holes", "Address": " 4 Clubhouse Cir", "City": " Bellingham", "State": "WA", "Zip Code": "98229-2735", "Phone Number": " 360 734-6435", "Weekday_Early_Bird": 57.0, "Weekday_Prime_Time": 57.0, "Weekday_Afternoon": 40.0, "Weekday_Twilight": 30.0, "Weekend_Early_Bird": 67.0, "Weekend_Prime_Time": 67.0, "Weekend_Afternoon": 47.0, "Weekend_Twilight": 34.0 }, "geometry": { "type": "Point", "coordinates": [ -122.327148, 48.712137 ] } },
{ "type": "Feature", "properties": { "Name": "Loomis Trail Country Club", "Type": "Public", "Holes": " 18 Holes", "Address": " 4342 Loomis Trail Rd", "City": " Blaine", "State": "WA", "Zip Code": "98230-9787", "Phone Number": " 800 281-7002", "Weekday_Early_Bird": 80.0, "Weekday_Prime_Time": 80.0, "Weekday_Afternoon": 80.0, "Weekday_Twilight": 80.0, "Weekend_Early_Bird": 80.0, "Weekend_Prime_Time": 80.0, "Weekend_Afternoon": 80.0, "Weekend_Twilight": 80.0 }, "geometry": { "type": "Point", "coordinates": [ -122.716105, 48.952156 ] } },
{ "type": "Feature", "properties": { "Name": "Gold Mountain Golf Course", "Type": "Municipal", "Holes": " 36 Holes", "Address": " 7263 W Belfair Valley Rd", "City": " Bremerton", "State": "WA", "Zip Code": "98312-9709", "Phone Number": " 360 415-5432", "Weekday_Early_Bird": 42.0, "Weekday_Prime_Time": 42.0, "Weekday_Afternoon": 25.0, "Weekday_Twilight": 25.0, "Weekend_Early_Bird": 46.0, "Weekend_Prime_Time": 46.0, "Weekend_Afternoon": 28.0, "Weekend_Twilight": 28.0 }, "geometry": { "type": "Point", "coordinates": [ -122.74156, 47.52458 ] } },
{ "type": "Feature", "properties": { "Name": "Rolling Hills Golf Course", "Type": "Public", "Holes": " 18 Holes", "Address": " 2485 NE McWilliams Rd", "City": " Bremerton", "State": "WA", "Zip Code": "98311-8407", "Phone Number": " 360 479-1212", "Weekday_Early_Bird": 36.5, "Weekday_Prime_Time": 36.5, "Weekday_Afternoon": 28.5, "Weekday_Twilight": 21.0, "Weekend_Early_Bird": 40.0, "Weekend_Prime_Time": 40.0, "Weekend_Afternoon": 32.0, "Weekend_Twilight": 32.0 }, "geometry": { "type": "Point", "coordinates": [ -122.617679, 47.621193 ] } },
{ "type": "Feature", "properties": { "Name": "Avalon Golf Club", "Type": "Public", "Holes": " 54 Holes", "Address": " 19345 Kelleher Rd", "City": " Burlington", "State": "WA", "Zip Code": "98233-8500", "Phone Number": " 800 643-4766", "Weekday_Early_Bird": 52.0, "Weekday_Prime_Time": 58.0, "Weekday_Afternoon": 43.0, "Weekday_Twilight": 33.0, "Weekend_Early_Bird": 62.0, "Weekend_Prime_Time": 68.0, "Weekend_Afternoon": 52.0, "Weekend_Twilight": 42.0 }, "geometry": { "type": "Point", "coordinates": [ -122.327631, 48.526379 ] } },
{ "type": "Feature", "properties": { "Name": "Camaloch Golf Club", "Type": "Public", "Holes": " 18 Holes", "Address": " 326 NE Camano Dr", "City": " Camano Island", "State": "WA", "Zip Code": "98282-8790", "Phone Number": " 800 628-0469", "Weekday_Early_Bird": 31.0, "Weekday_Prime_Time": 35.0, "Weekday_Afternoon": 31.0, "Weekday_Twilight": 21.0, "Weekend_Early_Bird": 36.0, "Weekend_Prime_Time": 43.0, "Weekend_Afternoon": 33.0, "Weekend_Twilight": 24.0 }, "geometry": { "type": "Point", "coordinates": [ -122.475853, 48.22239 ] } },
{ "type": "Feature", "properties": { "Name": "Blue Heron Golf Course", "Type": "Public", "Holes": " 18 Holes", "Address": " 1810 W Snoqualmie River Rd NE", "City": " Carnation", "State": "WA", "Zip Code": "98014-8102", "Phone Number": " 877 205-6106", "Weekday_Early_Bird": 34.0, "Weekday_Prime_Time": 34.0, "Weekday_Afternoon": 34.0, "Weekday_Twilight": 19.0, "Weekend_Early_Bird": 39.0, "Weekend_Prime_Time": 39.0, "Weekend_Afternoon": 39.0, "Weekend_Twilight": 19.0 }, "geometry": { "type": "Point", "coordinates": [ -121.93334, 47.624472 ] } },
{ "type": "Feature", "properties": { "Name": "Walter E. Hall Golf Course", "Type": "Municipal", "Holes": " 18 Holes", "Address": " 1226 W Casino Rd", "City": " Everett", "State": "WA", "Zip Code": "98204-1506", "Phone Number": " 425 353-4653", "Weekday_Early_Bird": 27.0, "Weekday_Prime_Time": 35.0, "Weekday_Afternoon": 27.0, "Weekday_Twilight": 19.0, "Weekend_Early_Bird": 40.0, "Weekend_Prime_Time": 40.0, "Weekend_Afternoon": 30.0, "Weekend_Twilight": 19.0 }, "geometry": { "type": "Point", "coordinates": [ -122.250833, 47.921693 ] } },
{ "type": "Feature", "properties": { "Name": "Legion Memorial Golf Course", "Type": "Municipal", "Holes": " 18 Holes", "Address": " 144 W Marine View Dr", "City": " Everett", "State": "WA", "Zip Code": "98201-1000", "Phone Number": " 425 259-4653", "Weekday_Early_Bird": 27.0, "Weekday_Prime_Time": 35.0, "Weekday_Afternoon": 27.0, "Weekday_Twilight": 19.0, "Weekend_Early_Bird": 38.0, "Weekend_Prime_Time": 38.0, "Weekend_Afternoon": 30.0, "Weekend_Twilight": 19.0 }, "geometry": { "type": "Point", "coordinates": [ -122.199558, 48.017589 ] } },
{ "type": "Feature", "properties": { "Name": "Twin Rivers Golf Course", "Type": "Public", "Holes": " 18 Holes", "Address": " 4446 Preston Fall City Rd SE", "City": " Fall City", "State": "WA", "Zip Code": "98024-5707", "Phone Number": " 425 222-7575", "Weekday_Early_Bird": 32.0, "Weekday_Prime_Time": 32.0, "Weekday_Afternoon": 32.0, "Weekday_Twilight": 32.0, "Weekend_Early_Bird": 40.0, "Weekend_Prime_Time": 40.0, "Weekend_Afternoon": 40.0, "Weekend_Twilight": 40.0 }, "geometry": { "type": "Point", "coordinates": [ -121.889658, 47.563624 ] } },
{ "type": "Feature", "properties": { "Name": "Snoqualmie Falls Golf Course", "Type": "Public", "Holes": " 18 Holes", "Address": " 35109 SE Fish Hatchery Rd", "City": " Fall City", "State": "WA", "Zip Code": "98024-8601", "Phone Number": " 425 222-5244", "Weekday_Early_Bird": 42.0, "Weekday_Prime_Time": 42.0, "Weekday_Afternoon": 36.0, "Weekday_Twilight": 36.0, "Weekend_Early_Bird": 52.0, "Weekend_Prime_Time": 52.0, "Weekend_Afternoon": 36.0, "Weekend_Twilight": 36.0 }, "geometry": { "type": "Point", "coordinates": [ -121.871303, 47.564436 ] } },
{ "type": "Feature", "properties": { "Name": "Holmes Harbor Golf Club", "Type": "Public", "Holes": " 18 Holes", "Address": " 5023 Harbor Hills Dr", "City": " Freeland", "State": "WA", "Zip Code": "98249-9798", "Phone Number": " 360 331-2363", "Weekday_Early_Bird": 31.28, "Weekday_Prime_Time": 31.28, "Weekday_Afternoon": 31.28, "Weekday_Twilight": 27.6, "Weekend_Early_Bird": 36.8, "Weekend_Prime_Time": 36.8, "Weekend_Afternoon": 36.8, "Weekend_Twilight": 31.28 }, "geometry": { "type": "Point", "coordinates": [ -122.539411, 48.029316 ] } },
{ "type": "Feature", "properties": { "Name": "Homestead Farms Golf Resort", "Type": "Public", "Holes": " 18 Holes", "Address": " 115 E Homestead Blvd", "City": " Lynden", "State": "WA", "Zip Code": "98264-9125", "Phone Number": " 360 354-1196", "Weekday_Early_Bird": 20.0, "Weekday_Prime_Time": 20.0, "Weekday_Afternoon": 20.0, "Weekday_Twilight": 20.0, "Weekend_Early_Bird": 25.0, "Weekend_Prime_Time": 25.0, "Weekend_Afternoon": 25.0, "Weekend_Twilight": 25.0 }, "geometry": { "type": "Point", "coordinates": [ -122.450111, 48.959768 ] } },
{ "type": "Feature", "properties": { "Name": "Lynnwood Municipal, Golf Course", "Type": "Municipal", "Holes": " 18 Holes", "Address": " 20200 68th Ave W", "City": " Lynnwood", "State": "WA", "Zip Code": "98036-5914", "Phone Number": " 425 672-4653", "Weekday_Early_Bird": 27.0, "Weekday_Prime_Time": 27.0, "Weekday_Afternoon": 27.0, "Weekday_Twilight": 22.0, "Weekend_Early_Bird": 30.0, "Weekend_Prime_Time": 30.0, "Weekend_Afternoon": 30.0, "Weekend_Twilight": 22.0 }, "geometry": { "type": "Point", "coordinates": [ -122.324972, 47.815809 ] } },
{ "type": "Feature", "properties": { "Name": "Cedarcrest Golf Course", "Type": "Municipal", "Holes": " 18 Holes", "Address": " 6810 84th St NE", "City": " Marysville", "State": "WA", "Zip Code": "98270-7818", "Phone Number": " 360 363-2460", "Weekday_Early_Bird": 20.25, "Weekday_Prime_Time": 26.5, "Weekday_Afternoon": 26.5, "Weekday_Twilight": 20.25, "Weekend_Early_Bird": 20.25, "Weekend_Prime_Time": 29.0, "Weekend_Afternoon": 29.0, "Weekend_Twilight": 20.5 }, "geometry": { "type": "Point", "coordinates": [ -122.139978, 48.071582 ] } },
{ "type": "Feature", "properties": { "Name": "Battle Creek Golf Course", "Type": "Public", "Holes": " 27 Holes", "Address": " 6006 Meridian Ave N", "City": " Marysville", "State": "WA", "Zip Code": "98271-6505", "Phone Number": " 800 655-7931", "Weekday_Early_Bird": 33.0, "Weekday_Prime_Time": 33.0, "Weekday_Afternoon": 33.0, "Weekday_Twilight": 33.0, "Weekend_Early_Bird": 39.0, "Weekend_Prime_Time": 39.0, "Weekend_Afternoon": 39.0, "Weekend_Twilight": 39.0 }, "geometry": { "type": "Point", "coordinates": [ -122.233161, 48.049561 ] } },
{ "type": "Feature", "properties": { "Name": "Nile Shrine Golf Club", "Type": "Public", "Holes": " 18 Holes", "Address": " 6601 244th St SW", "City": " Mountlake Terrace", "State": "WA", "Zip Code": "98043-2750", "Phone Number": " 425 776-5154", "Weekday_Early_Bird": 25.0, "Weekday_Prime_Time": 29.0, "Weekday_Afternoon": 29.0, "Weekday_Twilight": 20.0, "Weekend_Early_Bird": 33.0, "Weekend_Prime_Time": 33.0, "Weekend_Afternoon": 33.0, "Weekend_Twilight": 23.0 }, "geometry": { "type": "Point", "coordinates": [ -122.323224, 47.77775 ] } },
{ "type": "Feature", "properties": { "Name": "Harbour Pointe Golf Club", "Type": "Public", "Holes": " 18 Holes", "Address": " 11817 Harbour Pointe Blvd", "City": " Mukilteo", "State": "WA", "Zip Code": "98275-5200", "Phone Number": " 800 233-3128", "Weekday_Early_Bird": 60.0, "Weekday_Prime_Time": 69.0, "Weekday_Afternoon": 42.0, "Weekday_Twilight": 34.5, "Weekend_Early_Bird": 79.35, "Weekend_Prime_Time": 79.35, "Weekend_Afternoon": 57.2, "Weekend_Twilight": 41.6 }, "geometry": { "type": "Point", "coordinates": [ -122.311664, 47.8903 ] } },
{ "type": "Feature", "properties": { "Name": "The Golf Club At Newcastle", "Type": "Public", "Holes": " 36 Holes", "Address": " 15500 6 Penny Ln", "City": " Newcastle", "State": "WA", "Zip Code": "98059-3086", "Phone Number": " 425 793-5566", "Weekday_Early_Bird": 161.0, "Weekday_Prime_Time": 161.0, "Weekday_Afternoon": 115.0, "Weekday_Twilight": 115.0, "Weekend_Early_Bird": 173.0, "Weekend_Prime_Time": 173.0, "Weekend_Afternoon": 127.0, "Weekend_Twilight": 127.0 }, "geometry": { "type": "Point", "coordinates": [ -122.143506, 47.535319 ] } },
{ "type": "Feature", "properties": { "Name": "Peninsula Golf Club Inc.", "Type": "Public", "Holes": " 18 Holes", "Address": " 824 S Lindberg Rd", "City": " Port Angeles", "State": "WA", "Zip Code": "98362-9349", "Phone Number": " 360 457-6501", "Weekday_Early_Bird": 42.0, "Weekday_Prime_Time": 42.0, "Weekday_Afternoon": 42.0, "Weekday_Twilight": 25.0, "Weekend_Early_Bird": 42.0, "Weekend_Prime_Time": 42.0, "Weekend_Afternoon": 42.0, "Weekend_Twilight": 25.0 }, "geometry": { "type": "Point", "coordinates": [ -123.396732, 48.099031 ] } },
{ "type": "Feature", "properties": { "Name": "Resort At Port Ludlow", "Type": "Public", "Holes": " 27 Holes", "Address": " 9483 Oak Bay Rd", "City": " Port Ludlow", "State": "WA", "Zip Code": "98365-9794", "Phone Number": " 800 455-0272", "Weekday_Early_Bird": 35.0, "Weekday_Prime_Time": 35.0, "Weekday_Afternoon": 27.0, "Weekday_Twilight": 27.0, "Weekend_Early_Bird": 39.0, "Weekend_Prime_Time": 39.0, "Weekend_Afternoon": 29.0, "Weekend_Twilight": 29.0 }, "geometry": { "type": "Point", "coordinates": [ -122.697963, 47.921114 ] } },
{ "type": "Feature", "properties": { "Name": "Discovery Bay Golf Club", "Type": "Public", "Holes": " 18 Holes", "Address": " 7401 Cape George Rd", "City": " Port Townsend", "State": "WA", "Zip Code": "98368-9625", "Phone Number": " 800 385-8722", "Weekday_Early_Bird": 31.0, "Weekday_Prime_Time": 31.0, "Weekday_Afternoon": 20.0, "Weekday_Twilight": 20.0, "Weekend_Early_Bird": 31.0, "Weekend_Prime_Time": 31.0, "Weekend_Afternoon": 20.0, "Weekend_Twilight": 20.0 }, "geometry": { "type": "Point", "coordinates": [ -122.843549, 48.053883 ] } },
{ "type": "Feature", "properties": { "Name": "Port Townsend Golf Course", "Type": "Public", "Holes": " 9 Holes", "Address": " 1948 Blaine St", "City": " Port Townsend", "State": "WA", "Zip Code": "98368-6303", "Phone Number": " 360 385-4547", "Weekday_Early_Bird": 15.3, "Weekday_Prime_Time": 15.3, "Weekday_Afternoon": 25.0, "Weekday_Twilight": 17.0, "Weekend_Early_Bird": 15.3, "Weekend_Prime_Time": 15.3, "Weekend_Afternoon": 25.0, "Weekend_Twilight": 17.0 }, "geometry": { "type": "Point", "coordinates": [ -122.773472, 48.115073 ] } },
{ "type": "Feature", "properties": { "Name": "Willows Run Golf Club", "Type": "Public", "Holes": " 45 Holes", "Address": " 10402 Willows Rd NE", "City": " Redmond", "State": "WA", "Zip Code": "98052-2504", "Phone Number": " 425 883-1200", "Weekday_Early_Bird": 54.0, "Weekday_Prime_Time": 56.0, "Weekday_Afternoon": 41.0, "Weekday_Twilight": 26.0, "Weekend_Early_Bird": 68.0, "Weekend_Prime_Time": 70.0, "Weekend_Afternoon": 45.0, "Weekend_Twilight": 36.0 }, "geometry": { "type": "Point", "coordinates": [ -122.15127, 47.695207 ] } },
{ "type": "Feature", "properties": { "Name": "Golf Club At Redmond Ridge", "Type": "Public", "Holes": " 18 Holes", "Address": " 11825 Trilogy Pkwy NE", "City": " Redmond", "State": "WA", "Zip Code": "98053-5628", "Phone Number": " 866 305-1857", "Weekday_Early_Bird": 67.0, "Weekday_Prime_Time": 67.0, "Weekday_Afternoon": 49.0, "Weekday_Twilight": 49.0, "Weekend_Early_Bird": 79.0, "Weekend_Prime_Time": 79.0, "Weekend_Afternoon": 59.0, "Weekend_Twilight": 59.0 }, "geometry": { "type": "Point", "coordinates": [ -122.025218, 47.702669 ] } },
{ "type": "Feature", "properties": { "Name": "West Seattle Municipal, Golf Course", "Type": "Municipal", "Holes": " 18 Holes", "Address": " 4470 35th Ave SW", "City": " Seattle", "State": "WA", "Zip Code": "98126-2636", "Phone Number": " 206 935-5187", "Weekday_Early_Bird": 31.75, "Weekday_Prime_Time": 31.75, "Weekday_Afternoon": 26.75, "Weekday_Twilight": 17.0, "Weekend_Early_Bird": 42.5, "Weekend_Prime_Time": 38.0, "Weekend_Afternoon": 26.75, "Weekend_Twilight": 17.0 }, "geometry": { "type": "Point", "coordinates": [ -122.376002, 47.563468 ] } },
{ "type": "Feature", "properties": { "Name": "Jackson Park Golf Course", "Type": "Municipal", "Holes": " 27 Holes", "Address": " 1000 NE 135th St", "City": " Seattle", "State": "WA", "Zip Code": "98125-3107", "Phone Number": " 206 363-4747", "Weekday_Early_Bird": 33.75, "Weekday_Prime_Time": 33.75, "Weekday_Afternoon": 26.75, "Weekday_Twilight": 17.0, "Weekend_Early_Bird": 42.5, "Weekend_Prime_Time": 38.0, "Weekend_Afternoon": 26.75, "Weekend_Twilight": 17.0 }, "geometry": { "type": "Point", "coordinates": [ -122.317885, 47.726858 ] } },
{ "type": "Feature", "properties": { "Name": "SunLand Golf & Country Club", "Type": "Public", "Holes": " 18 Holes", "Address": " 109 Hilltop Dr", "City": " Sequim", "State": "WA", "Zip Code": "98382-9319", "Phone Number": " 888 289-4314", "Weekday_Early_Bird": 32.0, "Weekday_Prime_Time": 25.0, "Weekday_Afternoon": 19.0, "Weekday_Twilight": 19.0, "Weekend_Early_Bird": 35.0, "Weekend_Prime_Time": 27.5, "Weekend_Afternoon": 19.0, "Weekend_Twilight": 19.0 }, "geometry": { "type": "Point", "coordinates": [ -123.096224, 48.111618 ] } },
{ "type": "Feature", "properties": { "Name": "The Cedars At Dungeness", "Type": "Public", "Holes": " 18 Holes", "Address": " 1965 Woodcock Rd", "City": " Sequim", "State": "WA", "Zip Code": "98382-9598", "Phone Number": " 800 447-6826", "Weekday_Early_Bird": 32.0, "Weekday_Prime_Time": 32.0, "Weekday_Afternoon": 22.0, "Weekday_Twilight": 22.0, "Weekend_Early_Bird": 34.0, "Weekend_Prime_Time": 34.0, "Weekend_Afternoon": 24.0, "Weekend_Twilight": 24.0 }, "geometry": { "type": "Point", "coordinates": [ -123.173396, 48.116222 ] } },
{ "type": "Feature", "properties": { "Name": "Snohomish Golf Course", "Type": "Public", "Holes": " 18 Holes", "Address": " 7805 147th Ave SE", "City": " Snohomish", "State": "WA", "Zip Code": "98290-9045", "Phone Number": " 800 560-2676", "Weekday_Early_Bird": 33.0, "Weekday_Prime_Time": 38.0, "Weekday_Afternoon": 38.0, "Weekday_Twilight": 33.0, "Weekend_Early_Bird": 45.0, "Weekend_Prime_Time": 45.0, "Weekend_Afternoon": 45.0, "Weekend_Twilight": 40.0 }, "geometry": { "type": "Point", "coordinates": [ -122.033989, 47.926062 ] } },
{ "type": "Feature", "properties": { "Name": "The Golf Club At Echo Falls", "Type": "Public", "Holes": " 18 Holes", "Address": " 20414 121st Ave SE", "City": " Snohomish", "State": "WA", "Zip Code": "98296-3987", "Phone Number": " 360 668-3030", "Weekday_Early_Bird": 29.0, "Weekday_Prime_Time": 29.0, "Weekday_Afternoon": 24.0, "Weekday_Twilight": 24.0, "Weekend_Early_Bird": 45.0, "Weekend_Prime_Time": 45.0, "Weekend_Afternoon": 29.0, "Weekend_Twilight": 29.0 }, "geometry": { "type": "Point", "coordinates": [ -122.069206, 47.811719 ] } },
{ "type": "Feature", "properties": { "Name": "Mount Si Golf Course", "Type": "Public", "Holes": " 18 Holes", "Address": " 9100 Boalch Avenue SE", "City": " Snoqualmie", "State": "WA", "Zip Code": "98065", "Phone Number": " 425 391-4926", "Weekday_Early_Bird": 25.76, "Weekday_Prime_Time": 36.8, "Weekday_Afternoon": 36.8, "Weekday_Twilight": 25.76, "Weekend_Early_Bird": 44.16, "Weekend_Prime_Time": 44.16, "Weekend_Afternoon": 28.76, "Weekend_Twilight": 28.76 }, "geometry": { "type": "Point", "coordinates": [ -121.799049, 47.51393 ] } }
]
}
